City,lat,Lng,Max Temp,Humidity,Cloudiness,Wind Speed,Country,Date
Atuona,-9.8,-139.0333,78.1,69,23,15.43,PF,1635413937
Butaritari,3.0707,172.7902,81.3,73,100,4.99,KI,1635413724
Pasni,25.2631,63.471,80.2,57,0,10.51,PK,1635413889
Mataura,-46.1927,168.8643,54.41,82,94,2.53,NZ,1635413691
Nanortalik,60.1432,-45.2371,33.84,77,76,6.96,GL,1635413795
São João da Barra,-21.6403,-41.0511,71.69,85,97,8.25,BR,1635413938
Rikitea,-23.1203,-134.9692,73.35,81,16,4.72,PF,1635413694
Vaini,-21.2,-175.2,73.56,88,20,6.91,TO,1635413739
Cidreira,-30.1811,-50.2056,68.85,90,6,12.44,BR,1635413689
Hithadhoo,-0.6,73.0833,82.08,75,96,17.96,MV,1635413938
Xingyi,24.1877,102.817,62.08,86,98,3.51,CN,1635413938
Hong Kong,22.2855,114.1577,79.97,76,22,7.0,HK,1635413782
Laas,46.6166,10.7002,45.34,24,7,4.47,IT,1635413939
Ushuaia,-54.8,-68.3,47.86,49,0,16.11,AR,1635413775
Soubre,5.7856,-6.6083,80.85,77,77,1.88,CI,1635413939
Khatanga,71.9667,102.5,-3.03,98,100,2.91,RU,1635413939
São Filipe,14.8961,-24.4956,79.21,74,39,10.07,CV,1635413940
Cape Town,-33.9258,18.4232,75.09,46,40,4.0,ZA,1635413840
Provideniya,64.3833,-173.3,14.45,87,100,5.21,RU,1635413940
Geraldton,-28.7667,114.6,68.41,49,75,17.27,AU,1635413941
Tuktoyaktuk,69.4541,-133.0374,27.21,92,100,5.35,CA,1635413941
Bredasdorp,-34.5322,20.0403,70.92,68,40,5.75,ZA,1635413941
Jamestown,42.097,-79.2353,43.07,97,1,3.0,US,1635413942
Makkah al Mukarramah,21.4267,39.8261,92.75,33,83,10.67,SA,1635413943
Merauke,-8.4667,140.3333,84.61,75,97,18.32,ID,1635413943
Borova,50.1763,30.1043,53.51,66,100,13.76,UA,1635413943
Kokoda,-8.8785,147.7407,76.26,96,96,2.66,PG,1635413944
Sarangani,5.4033,125.4636,84.24,74,41,15.97,PH,1635413687
Olavarría,-36.8927,-60.3225,67.01,67,98,7.49,AR,1635413944
Lüderitz,-26.6481,15.1594,67.77,64,87,10.18,NA,1635413945
Chokurdakh,70.6333,147.9167,-7.71,95,48,3.96,RU,1635413945
Dali,25.7,100.1833,63.84,79,18,5.41,CN,1635413945
Severo-Kuril'sk,50.6789,156.125,42.33,89,55,4.38,RU,1635413938
Turukhansk,65.8167,87.9833,9.45,97,100,4.54,RU,1635413946
Tiarei,-17.5333,-149.3333,77.02,80,31,9.4,PF,1635413811
Wenling,28.3669,121.36,65.14,73,65,9.31,CN,1635413946
Riyadh,24.6877,46.7219,93.34,10,26,14.65,SA,1635413732
Petropavlovsk-Kamchatskiy,53.0452,158.6483,36.19,81,75,2.24,RU,1635413947
Albany,42.6001,-73.9662,41.31,91,92,3.13,US,1635413947
Sechelt,49.4664,-123.7694,49.08,92,100,6.89,CA,1635413947
Atambua,-9.1061,124.8925,80.82,71,100,2.24,ID,1635413766
Qaanaaq,77.484,-69.3632,22.24,93,100,7.7,GL,1635413774
Dikson,73.5069,80.5464,2.59,95,65,6.58,RU,1635413765
Hermanus,-34.4187,19.2345,68.81,71,48,10.98,ZA,1635413948
Punta Arenas,-53.15,-70.9167,44.71,76,0,13.8,CL,1635413775
Mar del Plata,-38.0023,-57.5575,57.22,100,26,5.75,AR,1635413948
Hilo,19.7297,-155.09,70.25,81,90,5.75,US,1635413820
Nador,35.174,-2.9287,68.07,72,40,5.75,MA,1635413949
Ambilobe,-13.2,49.05,90.23,42,45,13.82,MG,1635413950
Ponta Delgada,37.7333,-25.6667,68.72,77,20,12.66,PT,1635413950
Zinder,13.8072,8.9881,93.16,21,0,11.5,NE,1635413950
Pisco,-13.7,-76.2167,58.01,88,0,2.3,PE,1635413951
Yellowknife,62.456,-114.3525,36.41,100,90,3.44,CA,1635413951
New Norfolk,-42.7826,147.0587,49.71,78,100,3.71,AU,1635413743
Norman Wells,65.282,-126.8329,21.24,93,90,3.44,CA,1635413952
Lebu,-37.6167,-73.65,49.5,94,13,12.41,CL,1635413952
Turiaçu,-1.6633,-45.3717,77.27,89,30,3.8,BR,1635413952
Scarborough,54.2797,-0.4044,60.08,82,52,7.0,GB,1635413953
Edd,13.9297,41.6925,95.68,32,15,16.26,ER,1635413953
Castro,-24.7911,-50.0119,61.66,96,100,6.53,BR,1635413953
Ust'-Karsk,52.7011,118.8077,39.25,65,81,1.59,RU,1635413954
Oktyabr'skoye,43.0645,44.7417,55.35,38,0,6.71,RU,1635413954
Longyearbyen,78.2186,15.6401,15.64,79,20,4.61,SJ,1635413954
Hasaki,35.7333,140.8333,63.0,57,9,23.29,JP,1635413955
Iaciara,-14.0958,-46.6317,76.69,53,12,3.94,BR,1635413955
Baruun-Urt,46.6806,113.2792,44.67,35,0,10.18,MN,1635413955
Port Alfred,-33.5906,26.891,79.86,58,100,18.54,ZA,1635413955
San Cristobal,7.7669,-72.225,65.73,98,100,0.92,VE,1635413956
Champerico,14.3,-91.9167,83.35,87,79,4.79,GT,1635413956
Hambantota,6.1241,81.1185,88.14,74,75,3.44,LK,1635413956
Aykhal,66.0,111.5,8.94,93,100,21.41,RU,1635413883
Thomaston,32.8882,-84.3266,57.09,92,40,3.0,US,1635413957
Lashio,22.9333,97.75,72.57,92,12,1.99,MM,1635413957
Torbay,47.6666,-52.7314,39.58,83,90,17.27,CA,1635413958
Busselton,-33.65,115.3333,57.04,56,93,12.91,AU,1635413958
Yangi Marg`ilon,40.4272,71.7189,58.42,44,100,9.22,UZ,1635413958
Lompoc,34.6391,-120.4579,65.12,80,1,4.61,US,1635413831
Shingū,33.7333,135.9833,67.19,74,0,7.58,JP,1635413959
Samarai,-10.6167,150.6667,82.76,78,66,10.89,PG,1635413959
Sitka,57.0531,-135.33,37.29,87,20,5.75,US,1635413783
Cherskiy,68.75,161.3,-17.61,96,84,4.81,RU,1635413959
Grand Gaube,-20.0064,57.6608,81.0,63,17,11.99,MU,1635413960
Swift Current,50.2834,-107.8014,36.41,64,1,20.71,CA,1635413960
Najrān,17.4924,44.1277,86.65,14,66,12.5,SA,1635413960
Ilulissat,69.2167,-51.1,12.22,57,96,2.3,GL,1635413929
Umm Kaddadah,13.6017,26.6876,93.11,10,5,8.72,SD,1635413961
Malanje,-9.5402,16.341,71.98,88,75,2.3,AO,1635413961
Caravelas,-17.7125,-39.2481,76.98,74,27,10.04,BR,1635413819
Arraial do Cabo,-22.9661,-42.0278,73.36,94,75,5.75,BR,1635413959
Honggang,46.4667,124.8667,46.85,44,0,7.9,CN,1635413961
Aswān,24.0934,32.907,96.01,15,2,8.37,EG,1635413962
Hobart,-42.8794,147.3294,50.05,87,75,1.99,AU,1635413962
Christchurch,-43.5333,172.6333,55.02,89,90,1.01,NZ,1635413908
Ponta do Sol,32.6667,-17.1,73.71,63,18,1.68,PT,1635413963
Grindavik,63.8424,-22.4338,39.67,93,0,16.11,IS,1635413963
Port Elizabeth,-33.918,25.5701,85.1,83,0,4.61,ZA,1635413705
Tateyama,34.9833,139.8667,68.05,69,0,15.26,JP,1635413963
Tasiilaq,65.6145,-37.6368,32.16,85,100,8.81,GL,1635413703
Rocha,-34.4833,-54.3333,64.31,74,0,5.86,UY,1635413964
Karīmpur,23.9667,88.6167,85.03,52,22,7.72,IN,1635413964
Badin,24.656,68.8384,94.93,13,0,5.01,PK,1635413964
Fairbanks,64.8378,-147.7164,26.56,87,90,0.0,US,1635413519
Lorengau,-2.0226,147.2712,82.4,77,100,5.88,PG,1635413965
Langenburg,49.2544,9.8458,51.08,96,90,4.61,DE,1635413965
Tazovsky,67.4667,78.7,9.97,94,100,10.78,RU,1635413965
Polson,47.6936,-114.1632,45.48,68,98,4.52,US,1635413965
Kavieng,-2.5744,150.7967,83.79,73,48,9.91,PG,1635413966
Barrow,71.2906,-156.7887,24.82,80,90,5.75,US,1635413966
Westport,41.1415,-73.3579,53.82,83,90,3.0,US,1635413966
Prado,-17.3411,-39.2208,75.67,82,30,11.07,BR,1635413967
Bubaque,11.2833,-15.8333,78.91,83,78,6.91,GW,1635413967
Sémbé,1.6481,14.5806,84.4,69,85,1.01,CG,1635413967
Noumea,-22.2763,166.4572,69.78,81,13,10.58,NC,1635413968
Zion,42.4461,-87.8328,52.05,82,90,9.22,US,1635413968
Bathsheba,13.2167,-59.5167,81.21,74,20,9.22,BB,1635413968
Thompson,55.7435,-97.8558,41.16,100,90,3.44,CA,1635413969
Bluff,-46.6,168.3333,55.13,86,84,4.52,NZ,1635413969
San Patricio,28.017,-97.5169,71.49,33,0,10.4,US,1635413774
Mahébourg,-20.4081,57.7,80.89,61,40,20.71,MU,1635413970
Mahajanga,-15.7167,46.3167,89.62,55,20,14.97,MG,1635413970
Salinas,36.6777,-121.6555,64.38,89,1,3.44,US,1635413940
Honningsvåg,70.9821,25.9704,29.95,69,75,21.85,NO,1635413970
Ziniaré,12.5822,-1.2983,87.84,39,62,7.92,BF,1635413971
Isangel,-19.55,169.2667,75.31,88,5,6.91,VU,1635413971
Saskylakh,71.9167,114.0833,-4.68,99,100,6.58,RU,1635413685
Acapulco de Juárez,16.8634,-99.8901,77.34,89,58,3.06,MX,1635413971
Basse,52.5518,9.5069,60.26,80,40,8.05,DE,1635413972
Nikolskoye,59.7035,30.7861,47.88,83,97,3.51,RU,1635413972
Hamilton,39.1834,-84.5333,50.99,90,90,1.99,US,1635413973
Vardø,70.3705,31.1107,33.78,64,20,19.57,NO,1635413973
Mocuba,-16.8392,36.9856,89.51,32,60,7.11,MZ,1635413973
Oodweyne,9.4092,45.064,83.68,21,6,10.78,SO,1635413974
Carnarvon,-24.8667,113.6333,71.67,49,0,23.02,AU,1635413974
Bambous Virieux,-20.3428,57.7575,80.85,61,40,20.71,MU,1635413975
Kushmurun,52.4503,64.6311,47.03,31,94,21.54,KZ,1635413975
Bay Roberts,47.5999,-53.2648,40.33,82,100,15.99,CA,1635413975
Cap Malheureux,-19.9842,57.6142,81.09,63,14,11.99,MU,1635413976
Ancud,-41.8697,-73.8203,45.93,96,36,3.24,CL,1635413976
Ahipara,-35.1667,173.1667,59.22,94,39,4.65,NZ,1635413976
Kutum,14.2,24.6667,85.48,13,7,5.3,SD,1635413976
Linguère,15.3953,-15.1193,86.22,51,0,4.61,SN,1635413977
Robertson,36.5167,-86.8667,60.73,77,20,10.36,US,1635413938
Meulaboh,4.1363,96.1285,82.08,76,92,4.09,ID,1635413977
Siguiri,11.6667,-9.5,84.6,62,95,2.95,GN,1635413977
Allāpalli,19.4167,80.0667,86.23,51,47,5.06,IN,1635413978
Sungai Raya,0.7,108.9,81.28,80,99,5.88,ID,1635413978
Bayangol,50.6977,103.4656,31.32,83,95,4.41,RU,1635413978
Severomuysk,56.1481,113.4267,17.78,93,92,5.35,RU,1635413979
Hobyo,5.3505,48.5268,83.59,62,25,9.51,SO,1635413979
Kenai,60.5544,-151.2583,31.14,87,1,8.05,US,1635413979
Port Hedland,-20.3167,118.5667,86.05,42,4,16.11,AU,1635413980
East London,-33.0153,27.9116,72.54,73,0,12.66,ZA,1635413693
Bilma,18.6853,12.9164,94.24,11,23,8.7,NE,1635413980
Baculin,7.4525,126.5842,80.33,84,36,1.79,PH,1635413980
Saint-Philippe,-21.3585,55.7679,80.19,72,50,10.27,RE,1635413981
Dawei,14.0833,98.2,82.04,81,93,3.27,MM,1635413845
Namatanai,-3.6667,152.4333,81.79,78,97,7.34,PG,1635413981
Bengkulu,-3.8004,102.2655,81.14,76,100,4.54,ID,1635413707
George Town,5.4112,100.3354,89.55,72,20,1.01,MY,1635413726
Warrnambool,-38.3833,142.4833,56.8,95,100,16.73,AU,1635413982
Aljezur,37.3191,-8.8033,69.26,55,0,4.92,PT,1635413982
Aksu,41.1231,80.2644,59.36,27,97,1.92,CN,1635413983
Upernavik,72.7868,-56.1549,19.09,68,32,5.21,GL,1635413740
Ribeira Grande,38.5167,-28.7,66.6,77,75,9.22,PT,1635413983
Bethel,41.3712,-73.414,51.66,88,75,3.44,US,1635413983
Dakar,14.6937,-17.4441,83.28,65,58,6.91,SN,1635413984
Esperance,-33.8667,121.9,53.44,72,75,13.42,AU,1635413984
Angoram,-4.0625,144.0661,75.9,96,100,2.21,PG,1635413985
Douglas,41.3,-96.167,51.1,92,90,5.99,US,1635413985
Saryozek,44.3583,77.9753,53.33,54,100,4.56,KZ,1635413985
Acaraú,-2.8856,-40.12,81.7,70,18,18.5,BR,1635413986
Rapid Valley,44.0625,-103.1463,49.37,40,1,3.0,US,1635413986
Paraíso,9.8383,-83.8656,63.88,88,95,1.95,CR,1635413987
Nara,34.6851,135.8049,67.28,44,0,5.39,JP,1635413987
Eucaliptus,-17.5833,-67.5167,42.78,70,2,7.76,BO,1635413987
Chui,-33.6971,-53.4616,65.28,84,3,4.81,UY,1635413988
Guerrero Negro,27.9769,-114.0611,66.33,57,0,1.32,MX,1635413988
Huamachuco,-7.8,-78.0667,47.41,92,59,4.52,PE,1635413988
Banjar,-8.19,114.9675,84.06,86,84,2.73,ID,1635413989
Cap-aux-Meules,47.3821,-61.8597,44.65,76,75,20.71,CA,1635413989
Iqaluit,63.7506,-68.5145,31.73,80,75,4.0,CA,1635413989
Bilgi,16.35,75.6167,85.77,30,36,10.42,IN,1635413990
Cabo San Lucas,22.8909,-109.9124,77.5,79,3,4.94,MX,1635413990
Deputatsky,69.3,139.9,-2.92,99,100,1.57,RU,1635413990
Oyama,36.3,139.8,70.59,54,27,6.31,JP,1635413707
Zholymbet,51.7433,71.7122,42.46,27,57,18.01,KZ,1635413991
Were Īlu,10.6,39.4333,65.32,34,42,11.07,ET,1635413991
Dingle,10.9995,122.6711,77.58,89,100,6.44,PH,1635413991
Katsuura,35.1333,140.3,68.14,70,0,18.25,JP,1635413701
La Rioja,42.25,-2.5,45.48,41,100,3.33,ES,1635413992
Camacha,33.0833,-16.3333,69.53,64,20,10.36,PT,1635413992
Chumikan,54.7183,135.315,39.79,70,21,18.1,RU,1635413992
Mānsa,29.9833,75.3833,85.96,18,0,5.77,IN,1635413993
Great Yarmouth,52.6083,1.7305,60.24,77,91,21.0,GB,1635413993
Ikwiriri,-7.9562,38.9716,88.02,46,88,3.11,TZ,1635413993
Boa Vista,2.8197,-60.6733,76.98,88,75,2.3,BR,1635413994
Husavik,66.0449,-17.3389,31.91,88,97,6.11,IS,1635413994
Tura,25.5198,90.2201,78.22,76,8,3.89,IN,1635413994
Honiara,-9.4333,159.95,79.32,87,63,5.06,SB,1635413995
Kpandu,6.9954,0.2931,82.8,70,19,4.65,GH,1635413995
Panalingaan,8.7842,117.4231,76.84,91,100,5.5,PH,1635413995
Airai,-8.9266,125.4092,66.88,85,100,1.39,TL,1635413738
Bereda,43.2686,-7.5406,57.15,70,63,5.39,ES,1635413996
Olean,42.0776,-78.4297,42.26,94,2,2.21,US,1635413996
Kiryat Gat,31.61,34.7642,85.91,23,29,5.99,IL,1635413844
Sobolevo,54.4299,31.8996,55.06,71,34,15.84,RU,1635413996
Ayan,56.45,138.1667,37.33,72,76,4.72,RU,1635413997
Dumai,1.6833,101.45,82.17,87,82,1.68,ID,1635413875
Camaná,-16.6228,-72.7111,63.09,85,13,6.98,PE,1635413997
Kapaa,22.0752,-159.319,75.18,97,75,4.61,US,1635413980
Saint-Augustin,51.226,-58.6502,34.18,81,0,7.11,CA,1635413998
Batagay-Alyta,67.8006,130.4114,3.58,97,100,3.22,RU,1635413998
Malindi,-3.2175,40.1191,86.16,62,40,11.5,KE,1635413998
Severnyy,50.677,36.5532,46.44,71,75,11.18,RU,1635413877
Baoqing,46.3317,132.2111,41.85,59,1,5.23,CN,1635413999
Mehamn,71.0357,27.8492,30.38,69,0,17.27,NO,1635413999
Oussouye,12.485,-16.5469,77.18,90,67,6.55,SN,1635413999
Mildura,-34.2,142.15,84.16,30,90,26.46,AU,1635414000
Constitución,-35.3333,-72.4167,53.85,62,0,7.45,CL,1635413995
Clifton Springs,-38.15,144.5667,63.18,93,100,4.0,AU,1635414000
Cabadiangan,9.7531,122.4739,79.52,86,99,3.44,PH,1635414001
Saint-Pierre,-21.3393,55.4781,80.28,61,20,10.36,RE,1635414002
Biltine,14.5333,20.9167,96.53,10,5,10.78,TD,1635414002
Mossamedes,-15.1961,12.1522,74.03,64,20,11.5,AO,1635414003
Usakos,-22.0,15.6,90.77,27,8,7.94,NA,1635414004
Kavaratti,10.5669,72.642,80.2,78,100,5.35,IN,1635413775
Laguna,38.421,-121.4238,61.34,92,1,0.0,US,1635414005
Necochea,-38.5473,-58.7368,67.03,63,83,11.34,AR,1635414006
Codrington,-38.2667,141.9667,54.55,97,99,12.21,AU,1635413748
Salalah,17.0151,54.0924,84.29,65,0,10.36,OM,1635414006
Nantucket,41.2835,-70.0995,51.15,87,100,36.13,US,1635414007
Bichura,50.5881,107.6022,39.29,75,51,6.71,RU,1635414007
Nome,64.5011,-165.4064,15.87,79,90,4.61,US,1635414008
Stratoni,40.5141,23.8247,64.42,58,0,5.21,GR,1635414008
Saint George,37.1041,-113.5841,57.34,68,1,0.0,US,1635414008
Half Moon Bay,37.4636,-122.4286,63.63,91,90,4.61,US,1635413776
Conde,-7.2597,-34.9075,72.86,94,40,4.61,BR,1635414009
Quatre Cocos,-20.2078,57.7625,80.71,60,5,11.39,MU,1635413819
Wenatchee,47.4235,-120.3103,48.6,85,90,6.91,US,1635414009
Selkirk,50.1436,-96.8845,46.04,99,100,4.83,CA,1635414009
Shevchenkove,49.6959,37.1735,51.58,54,97,13.56,UA,1635414010
Litovko,49.2361,135.1742,41.68,69,10,4.47,RU,1635414010
Sapa,5.1544,120.3241,82.62,74,93,7.25,PH,1635414010
Bilibino,68.0546,166.4372,-19.97,99,17,3.51,RU,1635414011
Comodoro Rivadavia,-45.8667,-67.5,57.06,44,0,11.5,AR,1635414011
Boissevain,49.2306,-100.0559,37.9,78,0,9.04,CA,1635414011
Shimoda,34.6667,138.95,63.1,73,12,9.82,JP,1635414012
Lagos,6.5833,3.75,84.52,68,74,4.32,NG,1635413900
Vanavara,60.34,102.2797,24.15,56,96,11.45,RU,1635414012
Mogadishu,2.0371,45.3438,87.67,79,75,13.8,SO,1635414012
Krasnosel'kup,65.7,82.4667,7.88,96,99,8.7,RU,1635413716
Khani,41.9563,42.9566,53.17,54,0,4.34,GE,1635414013
Alakurtti,66.9672,30.3491,24.64,88,100,10.63,RU,1635414013
Zhigansk,66.7697,123.3711,20.75,86,100,14.97,RU,1635414013
Warwick,41.7001,-71.4162,48.58,88,90,13.8,US,1635414014
Saint Paul Harbor,57.79,-152.4072,36.54,84,94,5.03,US,1635414014
Puerto Ayora,-0.7393,-90.3518,67.55,95,19,3.0,EC,1635414014
Port Lincoln,-34.7333,135.8667,54.81,87,28,28.99,AU,1635414015
Fort Nelson,58.8053,-122.7002,29.79,100,90,5.75,CA,1635414015
Yining,29.0361,114.5636,66.99,62,71,2.95,CN,1635414015
Caucaia,-3.7361,-38.6531,83.07,73,40,8.05,BR,1635414016
Tàrrega,41.647,1.1396,62.15,52,0,3.02,ES,1635414016
Sangalhos,40.4868,-8.4697,65.1,44,53,5.39,PT,1635414016
Manado,1.487,124.8455,84.97,74,20,3.44,ID,1635414017
Coyhaique,-45.5752,-72.0662,48.15,81,90,3.44,CL,1635414017
The Valley,18.217,-63.0578,80.46,73,36,9.69,AI,1635414018
Talara,-4.5772,-81.2719,65.37,82,49,13.15,PE,1635414018
Ingham,42.6,-84.3833,51.57,95,90,4.61,US,1635414018
Alyangula,-13.8483,136.4192,85.87,62,20,6.91,AU,1635414019
Plastun,44.7561,136.2939,41.94,72,4,9.06,RU,1635414019
Aleksandrov Gay,50.147,48.5704,47.98,36,62,15.39,RU,1635414019
Hay River,60.8156,-115.7999,33.78,93,75,4.61,CA,1635414020
La Ronge,55.1001,-105.2842,37.65,93,90,4.61,CA,1635414020
Mazara del Vallo,37.6641,12.588,69.37,91,100,1.01,IT,1635414020
Atar,20.5169,-13.0499,82.44,41,68,6.02,MR,1635414021
Holland,42.7875,-86.1089,51.98,70,90,8.05,US,1635413941
Batemans Bay,-35.7167,150.1833,69.98,76,71,3.4,AU,1635414021
Vostok,46.4856,135.8833,35.01,79,100,4.38,RU,1635414021
Upington,-28.4478,21.2561,82.78,42,40,17.27,ZA,1635414022
Kirensk,57.7853,108.1119,27.93,48,98,6.98,RU,1635414022
Kleinmachnow,52.4,13.2333,59.05,79,0,9.22,DE,1635414022
Iralaya,15.0,-83.2333,80.15,84,83,7.27,HN,1635414023
Kitui,-1.367,38.0106,84.38,28,23,10.18,KE,1635414023
Knysna,-34.0363,23.0471,80.98,50,100,6.04,ZA,1635414023
Semenivka,52.1783,32.5818,48.22,90,100,11.72,UA,1635414024
Lewistown,40.5992,-77.5714,47.1,96,1,0.0,US,1635414024
Byron Bay,-28.65,153.6167,78.76,87,60,16.31,AU,1635414024
Jining,35.405,116.5814,63.63,51,8,2.15,CN,1635414025
Sayyan,15.1718,44.3244,67.26,17,2,9.44,YE,1635414025
Dandong,40.1292,124.3947,50.49,56,0,6.02,CN,1635414025
Delémont,47.3649,7.3445,64.13,56,11,1.19,CH,1635414026
Ginda,30.6945,78.4932,65.12,38,0,4.74,IN,1635413897
Narsaq,60.9167,-46.05,26.82,70,52,3.76,GL,1635414026
Kruisfontein,-34.0033,24.7314,82.89,34,100,8.12,ZA,1635414026
Tiksi,71.6872,128.8694,9.28,96,100,1.95,RU,1635414027
Faanui,-16.4833,-151.75,78.94,82,42,7.4,PF,1635414027
Guiratinga,-16.3494,-53.7583,73.89,86,100,3.09,BR,1635414027
Fengzhen,40.4394,113.1536,47.59,55,97,4.09,CN,1635414028
Kabanjahe,3.1001,98.4908,72.36,86,100,1.3,ID,1635414028
Strezhevoy,60.7333,77.5889,26.58,97,100,14.83,RU,1635414029
Kodinsk,58.6881,99.1844,26.51,55,62,5.91,RU,1635414029
Pozo Colorado,-23.4923,-58.7972,71.94,70,2,4.25,PY,1635414030
Miles City,46.4083,-105.8406,39.51,60,1,9.22,US,1635414030
Junnar,19.2,73.8833,81.91,38,4,9.78,IN,1635414030
Kharp,66.8014,65.8081,17.31,95,100,10.74,RU,1635414030
Venado Tuerto,-33.7456,-61.9688,66.78,47,100,9.66,AR,1635414031
Beringovskiy,63.05,179.3167,6.31,81,32,10.02,RU,1635414031
Linxia Chengguanzhen,35.6003,103.2064,52.09,51,100,3.22,CN,1635414031
Kabinda,-6.1333,24.4833,82.26,63,64,4.52,CD,1635414032
Yataity del Norte,-24.8333,-56.35,65.98,61,10,4.88,PY,1635414032
Kununurra,-15.7667,128.7333,94.98,43,62,9.22,AU,1635413882
Sheopur,25.6667,76.7,82.87,32,0,7.58,IN,1635414033
Port-Cartier,50.0334,-66.8654,33.91,69,1,7.0,CA,1635414033
Turaif,31.6725,38.6637,79.05,27,0,6.91,SA,1635414033
Neuquén,-38.9516,-68.0591,66.09,34,0,6.91,AR,1635414034
Mpika,-11.8343,31.4529,82.02,37,43,12.86,ZM,1635414034
Takoradze,4.8845,-1.7554,82.36,74,39,5.82,GH,1635414034
Pilot Butte,50.4668,-104.4178,35.78,80,1,8.05,CA,1635414035
Alofi,-19.0595,-169.9187,69.69,88,43,2.3,NU,1635414035
Şebinkarahisar,40.2883,38.4236,54.99,27,0,2.68,TR,1635414035
Palmas,-10.2128,-48.3603,75.07,94,0,4.61,BR,1635414036
Henties Bay,-22.116,14.2845,63.86,71,64,11.23,NA,1635414036
Kloulklubed,7.0419,134.2556,82.9,75,68,14.43,PW,1635414036
Aklavik,68.2191,-135.0107,27.43,97,90,5.68,CA,1635413774
Poya,-21.35,165.15,74.95,81,90,8.25,NC,1635414037
Peschanokopskoye,46.1961,41.0775,50.88,36,1,8.1,RU,1635414037
Verāval,20.9,70.3667,85.37,56,30,8.61,IN,1635414037
Desaguadero,-16.5656,-69.0417,42.51,77,23,7.23,PE,1635414038
Carndonagh,55.25,-7.2667,53.22,91,100,4.36,IE,1635414038
Avarua,-21.2078,-159.775,73.45,73,75,5.75,CK,1635414038
Olafsvik,64.8945,-23.7142,40.01,95,100,31.09,IS,1635414039
Belaya Gora,68.5333,146.4167,-2.42,98,99,2.1,RU,1635414039
Dunhua,43.3725,128.2425,39.45,61,0,3.91,CN,1635414039
Solnechnyy,50.7214,136.6319,35.29,76,2,4.18,RU,1635413858
Tommot,58.9564,126.2925,32.77,71,100,12.62,RU,1635413833
Dolinsk,47.35,142.8,46.26,97,100,21.77,RU,1635414040
Sahaswān,28.0833,78.75,81.91,31,0,3.71,IN,1635414040
Montepuez,-13.1256,38.9997,90.25,30,37,11.32,MZ,1635414040
Madona,56.8533,26.217,54.07,86,73,6.62,LV,1635414041
Conakry,9.538,-13.6773,77.07,88,75,2.3,GN,1635414041
Oktyabr'skiy,54.4815,53.471,39.69,74,100,14.16,RU,1635414041
Tegul'det,57.3064,88.1667,31.87,63,100,5.7,RU,1635414042
Karratha,-20.7377,116.8463,79.57,47,7,19.22,AU,1635414042
Saldanha,-33.0117,17.9442,66.25,68,14,13.94,ZA,1635414043
Buin,-33.7333,-70.75,64.74,65,33,2.73,CL,1635414043
Boundiali,9.5217,-6.4869,82.74,63,32,5.39,CI,1635414043
Poum,-20.2333,164.0167,75.45,82,14,9.46,NC,1635414044
Kelvington,52.1667,-103.5343,31.66,75,8,7.76,CA,1635414044
Laï,9.3952,16.2989,94.32,38,47,3.74,TD,1635414044
São Félix do Xingu,-6.6447,-51.995,73.81,85,11,0.27,BR,1635414045
Visnes,59.3556,5.2242,55.58,94,90,18.41,NO,1635414045
Aitape,-3.1374,142.3475,80.74,82,97,3.89,PG,1635414045
Gamba,-2.65,10.0,80.15,75,100,6.96,GA,1635414046
Sinegor'ye,62.0788,150.477,7.9,80,29,6.64,RU,1635414046
Eugene,44.0521,-123.0867,57.56,95,90,1.01,US,1635414046
Lavrentiya,65.5833,-171.0,13.57,74,100,7.05,RU,1635414047
Nyāmti,14.15,75.5833,80.74,56,18,5.32,IN,1635414047
Leningradskiy,69.3833,178.4167,8.35,91,100,15.1,RU,1635414048
Eyl,7.9803,49.8164,85.73,45,0,17.11,SO,1635414048
Boyolangu,-8.1181,111.8935,77.5,92,100,2.46,ID,1635414048
Pryazha,61.6926,33.6216,36.63,87,100,5.03,RU,1635414048
Innisfail,-17.5333,146.0333,75.31,77,2,2.98,AU,1635414049
Temyasovo,52.9933,58.1014,39.56,52,80,19.35,RU,1635414049
Margate,51.3813,1.3862,59.88,79,51,3.0,GB,1635414050
Avera,33.194,-82.5271,54.91,50,100,8.14,US,1635414050
Bara,10.3744,10.7288,89.38,33,65,1.79,NG,1635413897
Little Current,45.9793,-81.9248,45.41,81,9,11.41,CA,1635413772
Yeppoon,-23.1333,150.7333,78.58,81,0,10.45,AU,1635414050
Vila Velha,-20.3297,-40.2925,73.35,94,75,2.3,BR,1635413801
Killybegs,54.6333,-8.45,52.45,88,100,6.11,IE,1635414051
Naze,28.3667,129.4833,65.32,59,0,11.95,JP,1635413810
Tezu,27.9167,96.1667,76.82,65,0,0.72,IN,1635414051
Tadine,-21.55,167.8833,73.02,85,70,12.5,NC,1635413844
Touros,-5.1989,-35.4608,74.3,65,87,17.56,BR,1635414052
Itupiranga,-5.1347,-49.3267,77.32,87,8,2.91,BR,1635414052
Inhambane,-23.865,35.3833,80.58,39,40,18.41,MZ,1635414052
Pervoavgustovskiy,52.2264,35.0552,45.57,94,100,12.97,RU,1635414052
Mattru,7.6244,-11.8332,83.19,72,43,2.53,SL,1635414053
Alekseyevsk,57.8406,108.3492,28.0,48,98,7.43,RU,1635414053
Rio Grande,-32.035,-52.0986,63.95,85,0,6.98,BR,1635414053
Tanabe,33.7333,135.3667,67.21,45,20,16.11,JP,1635414054
Ulladulla,-35.35,150.4667,70.88,71,76,6.08,AU,1635413940
Chapleau,47.8405,-83.4034,38.1,79,67,4.79,CA,1635414054
Mount Vernon,40.9126,-73.8371,52.77,79,20,5.99,US,1635413975
Gualaquiza,-3.4,-78.55,61.12,99,98,1.28,EC,1635414054
Ossora,59.2353,163.0719,23.25,96,100,3.38,RU,1635414055
Nakamura,32.9833,132.9333,57.52,81,0,3.4,JP,1635414055
Mahon,39.8885,4.2658,66.76,68,40,4.61,ES,1635414055
Fasa,28.9383,53.6482,76.24,11,0,0.0,IR,1635414056
Coahuayana Viejo,18.7333,-103.6833,75.22,90,64,4.68,MX,1635414056
Navrongo,10.8956,-1.0921,90.16,48,95,7.16,GH,1635414056
Puteyets,65.1716,57.091,21.49,93,100,17.69,RU,1635414057
Villarrica,-25.75,-56.4333,65.79,70,20,3.67,PY,1635414057
Marsh Harbour,26.5412,-77.0636,77.32,72,7,5.32,BS,1635414057
County Wicklow,53.0,-6.4167,51.04,97,100,0.83,IE,1635414058
Yinchuan,38.4681,106.2731,56.53,31,2,2.57,CN,1635414058
Tingi,-11.3,35.0333,78.15,46,49,5.57,TZ,1635414058
Chaves,33.3834,-104.4505,52.21,28,1,11.5,US,1635414059
Viedma,-40.8135,-62.9967,69.64,31,67,9.8,AR,1635413888
Sinop Province,41.7711,34.8709,55.83,67,31,7.02,TR,1635413807
Souillac,-20.5167,57.5167,80.98,61,40,20.71,MU,1635414059
Michigan City,41.7075,-86.895,51.01,89,90,4.61,US,1635413871
Les Cayes,18.2,-73.75,76.21,84,14,4.14,HT,1635414060
Houndé,11.5,-3.5167,89.4,46,47,6.44,BF,1635414060
San Miguel de Tucumán,-26.8241,-65.2226,66.2,52,0,8.05,AR,1635414060
Mezen',65.8522,44.24,29.43,67,4,6.67,RU,1635414061
Nyurba,63.2842,118.3319,22.73,70,100,14.9,RU,1635414061
Ihiala,5.8538,6.8603,84.65,67,93,3.51,NG,1635414062
Omboué,-1.5746,9.2618,82.17,72,99,4.52,GA,1635413904
Yerbogachën,61.2767,108.0108,21.13,66,92,15.88,RU,1635413860
Ladário,-19.0047,-57.6017,76.33,75,85,2.71,BR,1635414063
Grand-Santi,4.25,-54.3833,70.95,97,85,1.7,GF,1635414063
Rafaela,-31.2503,-61.4867,69.06,57,100,1.99,AR,1635414063
Windhoek,-22.5594,17.0832,76.1,56,40,8.05,NA,1635414064
Adrar,20.5022,-10.0711,82.45,37,64,11.48,MR,1635414064
Korla,41.7597,86.1469,57.83,28,34,4.0,CN,1635414064
Celestún,20.8667,-90.4,77.56,85,16,8.39,MX,1635414064
Dharmadam,11.7833,75.4333,81.91,77,94,4.61,IN,1635414065
Kottagūdem,17.55,80.6333,86.49,62,99,5.35,IN,1635414065
Mount Hagen,-5.8581,144.2274,60.87,99,100,0.76,PG,1635414065
Plettenberg Bay,-34.0527,23.3716,74.93,57,100,6.71,ZA,1635414066
Rizhao,35.4275,119.4553,60.69,52,100,4.76,CN,1635414066
Saint-Joseph,-21.3667,55.6167,80.96,70,41,5.28,RE,1635414067
Waipawa,-41.4122,175.5153,57.45,94,100,6.2,NZ,1635414067
Severobaykal'sk,55.65,109.3167,23.67,71,85,11.97,RU,1635414068
Tefé,-3.3542,-64.7114,71.98,99,100,0.78,BR,1635414068
Vao,-22.6667,167.4833,71.53,75,93,14.5,NC,1635414068
Sindor,62.8629,51.8905,24.76,83,100,13.22,RU,1635414069
Praia da Vitória,38.7333,-27.0667,64.76,88,40,14.34,PT,1635414069
Podgorica,42.4411,19.2636,73.51,34,0,1.14,ME,1635414069
Klaksvík,62.2266,-6.589,47.32,83,52,20.87,FO,1635413864
Sakakah,29.9697,40.2064,81.97,15,1,4.61,SA,1635414070
Natal,-5.795,-35.2094,74.05,100,40,9.22,BR,1635414070
Huarmey,-10.0681,-78.1522,62.13,91,15,5.41,PE,1635414071
Vanimo,-2.6741,141.3028,79.79,84,84,3.94,PG,1635414071
Flinders,-34.5833,150.8552,76.21,63,86,4.76,AU,1635414071
Kasempa,-13.4584,25.8338,90.43,26,31,9.26,ZM,1635414071
Kannur,11.8675,75.3576,81.9,77,90,4.45,IN,1635414072
Onverwacht,5.5833,-55.1833,76.86,100,40,1.14,SR,1635414072
Toowoomba,-27.55,151.9667,79.54,69,68,3.78,AU,1635414073
Evensk,61.95,159.2333,10.27,95,100,5.01,RU,1635414073
Taltal,-25.4,-70.4833,58.6,75,18,1.52,CL,1635414073
Uspenka,48.3903,39.1619,49.32,51,99,7.52,UA,1635414074
Tessalit,20.1986,1.0114,95.07,12,94,13.27,ML,1635414074
Maragogi,-9.0122,-35.2225,78.69,76,17,9.51,BR,1635414074
Kota Kinabalu,5.9749,116.0724,82.38,83,40,5.75,MY,1635414075
Trincomalee,8.5711,81.2335,83.14,75,16,14.14,LK,1635414075
Lahat,-3.8,103.5333,80.26,85,100,2.77,ID,1635414075
Mulchén,-37.7167,-72.2333,46.0,92,3,4.21,CL,1635414076
Bom Jesus da Lapa,-13.255,-43.4181,76.23,58,5,6.22,BR,1635414076
Novoagansk,61.9449,76.6625,27.09,95,100,15.5,RU,1635414076
Portland,45.5234,-122.6762,56.64,92,90,8.01,US,1635413266
Darhan,49.4867,105.9228,42.67,61,63,8.23,MN,1635414077
Shangzhi,45.2167,127.9667,41.95,57,0,1.66,CN,1635414077
Ascension,30.2169,-90.9001,64.0,84,1,4.61,US,1635414077
Bukachacha,52.9833,116.9167,34.32,76,83,1.57,RU,1635414078
Taiyuan,37.8694,112.5603,58.86,44,0,4.47,CN,1635414078
Goundam,16.4145,-3.6708,95.09,24,12,10.6,ML,1635414078
Zhireken,52.8249,117.3076,33.51,75,70,1.36,RU,1635414079
Wajima,37.4,136.9,52.48,71,20,1.14,JP,1635414079
Neyshabur,36.2133,58.7958,55.9,29,0,4.72,IR,1635414079
Caraquet,47.7941,-64.9386,46.35,77,98,16.04,CA,1635414080
Saurimo,-9.6608,20.3916,89.91,38,49,2.98,AO,1635414080
Dashitou,43.3067,128.5114,38.91,62,0,2.21,CN,1635414080
Kasongo-Lunda,-6.4667,16.8167,86.05,61,99,2.42,CD,1635414081
Hofn,64.2539,-15.2082,44.62,87,90,12.66,IS,1635414081
Demirci,39.0461,28.6589,62.19,28,0,2.95,TR,1635414081
Iquitos,-3.7481,-73.2472,75.24,94,40,0.0,PE,1635414081
Curaçá,-8.9903,-39.9094,75.34,67,3,12.91,BR,1635414082
Shubarshi,48.5872,57.1869,44.56,30,64,13.91,KZ,1635414082
Shimanovsk,52.0,127.7,38.03,73,42,6.4,RU,1635414082
Vestmanna,62.1564,-7.1664,45.52,93,75,9.22,FO,1635414083
Ürümqi,43.801,87.6005,59.95,25,0,8.95,CN,1635413883
Coquimbo,-29.9533,-71.3436,51.53,100,90,2.3,CL,1635414083
Santa Isabel,-23.3156,-46.2214,70.66,98,100,2.46,BR,1635413827
Burns Lake,54.2331,-125.7533,26.02,95,26,4.54,CA,1635414084
Ca Mau,9.1769,105.15,81.99,81,79,6.42,VN,1635413790
Raja,8.4596,25.678,93.79,37,55,3.67,SS,1635414084
Salym,60.0625,71.4789,32.13,96,100,11.7,RU,1635414084
Syracuse,37.0881,15.2792,68.31,75,100,23.15,IT,1635414085
Muaná,-1.5283,-49.2167,76.05,90,38,3.69,BR,1635414085
Río Gallegos,-51.6226,-69.2181,48.25,66,0,0.0,AR,1635414085
Amontada,-3.3617,-39.8317,82.13,60,13,9.33,BR,1635414086
Andra,62.5147,65.8878,31.6,97,100,9.06,RU,1635414086
Lethem,3.3803,-59.7968,74.57,86,99,6.02,GY,1635414086
Chernyanka,50.9409,37.8069,44.96,84,100,13.89,RU,1635414087
Waingapu,-9.6567,120.2641,84.65,67,25,7.67,ID,1635414087
Bima,-8.4667,118.7167,83.95,74,37,1.63,ID,1635414087
Northam,51.0333,-4.2167,61.66,82,100,28.12,GB,1635414088
Ilhabela,-23.7781,-45.3581,71.2,96,100,10.04,BR,1635414088
Saint Anthony,45.0205,-93.218,48.15,94,90,1.01,US,1635414088
Dutlwe,-23.9833,23.9,71.04,56,100,9.86,BW,1635414088
Payson,40.0444,-111.7321,48.58,86,90,0.0,US,1635413562
Ngunguru,-35.6167,174.5,61.16,92,86,6.53,NZ,1635414089
Kangaatsiaq,68.3065,-53.4641,22.3,90,100,10.67,GL,1635414089
Derzhavīnsk,51.1,66.3167,44.22,25,76,20.36,KZ,1635414090
Simao,22.7886,100.9748,67.87,93,59,1.45,CN,1635414090
Gladstone,-23.85,151.25,76.93,73,0,9.22,AU,1635414090
Kaitangata,-46.2817,169.8464,51.48,98,66,5.06,NZ,1635414091
Tabuk,17.4189,121.4443,73.76,88,66,7.18,PH,1635414091
Glendive,47.1053,-104.7125,45.48,55,1,23.02,US,1635414091
Santa Vitória do Palmar,-33.5189,-53.3681,65.79,83,3,4.79,BR,1635414092
Kailua,21.4022,-157.7394,76.98,73,40,6.91,US,1635413807
Dudinka,69.4058,86.1778,-7.1,99,93,6.8,RU,1635414092
Kalevala,65.2,31.1667,30.13,85,95,10.71,RU,1635414093
Sanary-sur-Mer,43.1178,5.8001,68.94,65,92,3.0,FR,1635413835
Caculé,-14.5033,-42.2222,69.82,72,11,9.86,BR,1635414093
Kédougou,12.5579,-12.1743,73.98,94,40,4.61,SN,1635413830
Uruguaiana,-29.7547,-57.0883,69.73,64,0,9.22,BR,1635414093
Rosetta,31.4044,30.4164,82.22,57,99,12.37,EG,1635414094
Yulara,-25.2406,130.9889,93.04,10,30,19.57,AU,1635414094
Lufilufi,-13.8745,-171.5986,78.58,78,75,21.61,WS,1635414094
Morondava,-20.2833,44.2833,81.25,59,0,20.62,MG,1635414095
Blyznyuky,48.8578,36.5551,50.95,56,93,10.49,UA,1635414095
Brae,60.3964,-1.353,53.51,87,52,10.27,GB,1635414095
Bugiri,0.5714,33.7417,87.8,37,13,1.45,UG,1635414095
Soe,-9.8607,124.284,75.09,69,55,1.48,ID,1635414096
Buchanan,5.8808,-10.0467,82.36,76,27,1.7,LR,1635414096
Haimen,23.1935,116.6142,78.69,78,27,17.16,CN,1635414096
Bayir,37.2687,28.2167,68.52,34,0,4.7,TR,1635414097
Zemio,5.0314,25.1361,91.71,44,63,3.06,CF,1635414097
Värnamo,57.186,14.04,54.75,89,100,12.06,SE,1635414097
Jutaí,-5.1833,-68.9,71.42,97,100,0.67,BR,1635414098
Maumere,-8.6199,122.2111,83.75,74,90,1.97,ID,1635414098
Impruneta,43.687,11.2548,64.42,48,0,5.99,IT,1635414099
Pevek,69.7008,170.3133,6.51,92,100,4.72,RU,1635414099
Atlantis,-33.5667,18.4834,73.15,74,9,15.82,ZA,1635414099
Leer,8.3018,30.1418,95.54,36,41,4.5,SS,1635414099
Clyde River,70.4692,-68.5914,29.59,94,100,5.23,CA,1635414097
Sørland,67.667,12.6934,48.27,84,98,35.05,NO,1635414100
Gornyak,50.9942,81.4661,39.94,33,0,1.63,RU,1635414100
Rawson,-43.3002,-65.1023,59.63,56,8,14.23,AR,1635414100
Tieling,42.2931,123.8414,58.75,38,0,5.68,CN,1635414101
Balkhash,46.844,74.9804,54.21,47,0,6.71,KZ,1635414101
Port Moresby,-9.4431,147.1797,79.3,85,72,13.85,PG,1635414101
Ikere,7.4913,5.2322,81.05,72,99,2.42,NG,1635414101
Bonavista,48.6499,-53.1147,40.12,72,93,16.93,CA,1635414102
Kropotkin,45.4375,40.5756,54.5,43,0,10.76,RU,1635414102
Cuiluan,47.72,128.648,36.48,77,3,4.56,CN,1635414102
Rio Pardo de Minas,-15.6097,-42.5397,64.9,82,40,10.2,BR,1635414103
Mount Isa,-20.7333,139.5,92.97,31,45,9.22,AU,1635414103
Warangal,18.0,79.5833,81.93,61,95,8.81,IN,1635414103
Gimli,50.6336,-96.9907,46.06,100,100,4.61,CA,1635414103
Mombetsu,44.3525,143.3525,50.86,78,100,13.78,JP,1635414104
Talnakh,69.4865,88.3972,-8.97,99,100,6.49,RU,1635414104
La Santisima Trinidad,-14.8333,-64.9,76.98,83,29,0.0,BO,1635414104
Kaeo,-35.1,173.7833,61.32,95,66,4.0,NZ,1635414105
Zhalantun,48.0,122.7167,44.02,50,0,6.64,CN,1635414105
Vestmannaeyjar,63.4427,-20.2734,43.79,87,75,19.57,IS,1635414105
Saint-Paul,-21.0096,55.2707,82.49,60,5,14.14,RE,1635414106
Sol'vychegodsk,61.3305,46.9156,27.23,78,100,10.25,RU,1635414106
Poronaysk,49.2167,143.1167,41.45,87,100,17.49,RU,1635414106
Chu,43.5983,73.7614,59.5,37,100,8.21,KZ,1635414107
Chapais,49.7834,-74.8492,26.38,82,0,3.85,CA,1635414107
Luga,58.7372,29.8453,48.31,74,98,5.06,RU,1635414107
Bakel,14.905,-12.4568,91.35,25,66,9.71,SN,1635414108
San Quintín,30.4833,-115.95,63.19,70,0,1.59,MX,1635414108
De Haan,51.272,3.0429,56.03,85,0,1.99,BE,1635414108
Carutapera,-1.195,-46.02,76.73,91,28,5.82,BR,1635414109
Ampanihy,-24.7,44.75,76.17,36,8,21.03,MG,1635414109
Le Vauclin,14.5452,-60.8388,76.84,88,20,3.44,MQ,1635414109
Te Anau,-45.4167,167.7167,49.89,94,22,1.07,NZ,1635414110
Bhīmunipatnam,17.8833,83.4333,85.51,72,90,15.86,IN,1635414110
Mareeba,-17.0,145.4333,74.12,81,4,4.83,AU,1635414110
Tuatapere,-46.1333,167.6833,51.12,93,18,3.6,NZ,1635414111
Óbidos,-1.9175,-55.5181,73.58,91,50,2.15,BR,1635414111
Oriximiná,-1.7656,-55.8661,73.56,91,52,2.53,BR,1635414112
Emerald,-23.5333,148.1667,89.74,21,0,9.22,AU,1635414112
Stephenville,32.2207,-98.2023,59.0,44,1,8.05,US,1635414112
Bato,13.3528,123.3677,78.19,87,22,5.3,PH,1635414112
Ko Samui,9.5357,99.9357,87.71,70,20,12.66,TH,1635414113
Prince Rupert,54.3161,-130.3201,44.29,87,60,12.66,CA,1635414113
Lagoa,39.05,-27.9833,66.34,66,81,18.84,PT,1635414114
Mount Gambier,-37.8333,140.7667,53.51,94,90,12.66,AU,1635413872
Beisfjord,68.3751,17.5988,39.96,94,99,11.32,NO,1635414114
Trostberg,48.0279,12.5582,50.11,80,11,0.98,DE,1635414115
Saint-François,46.4154,3.9054,44.04,93,90,3.44,FR,1635414115
Cabedelo,-6.9811,-34.8339,74.07,63,62,13.91,BR,1635414116
Keetmanshoop,-26.5833,18.1333,79.72,38,40,21.65,NA,1635414116
Mbandaka,0.0487,18.2603,85.1,59,90,1.83,CD,1635414116
Brits,-25.6347,27.7802,72.82,48,99,9.93,ZA,1635414117
Breyten,-26.3018,29.987,66.36,50,99,5.93,ZA,1635414117
Creel,27.75,-107.6333,46.04,55,0,4.05,MX,1635414117
Pakur,24.6333,87.85,85.39,52,0,6.35,IN,1635414118
